[{"results": [{"fsq_id": "4c537892fd2ea593cb077a28", "categories": [{"id": 13046, "name": "Ice Cream Parlor", "icon": {"prefix": "https://ss3.4sqi.net/img/categories_v2/food/icecream_", "suffix": ".png"}}, {"id": 13097, "name": "Caribbean Restaurant", "icon": {"prefix": "https://ss3.4sqi.net/img/categories_v2/food/caribbean_", "suffix": ".png"}}, {"id": 13236, "name": "Italian Restaurant", "icon": {"prefix": "https://ss3.4sqi.net/img/categories_v2/food/italian_", "suffix": ".png"}}], "chains": [], "distance": 127, "geocodes": {"main": {"latitude": 40.893585, "longitude": -73.843692}, "roof": {"latitude": 40.893585, "longitude": -73.843692}}, "link": "/v3/places/4c537892fd2ea593cb077a28", "location": {"address": "4120 Baychester Ave", "census_block": "360050428001005", "country": "US", "cross_street": "Edenwald & Bussing Ave", "dma": "New York", "formatted_address": "4120 Baychester Ave (Edenwald & Bussing Ave), Bronx, NY 10466", "locality": "Bronx", "postcode": "10466", "region": "NY"}, "name": "Lollipops Gelato", "related_places": {}, "timezone": "America/New_York"}, {"fsq_id": "5332b73011d28308bf8669fe", "categories": [{"id": 11026, "name": "Daycare", "icon": {"prefix": "https://ss3.4sqi.net/img/categories_v2/shops/daycare_", "suffix": ".png"}}], "chains": [], "distance": 147, "geocodes": {"main": {"latitude": 40.894459, "longitude": -73.845432}, "roof": {"latitude": 40.894459, "longitude": -73.845432}}, "link": "/v3/places/5332b73011d28308bf8669fe", "location": {"address": "4167 Edson Ave", "census_block": "360050428002001", "country": "US", "cross_street": "", "dma": "New York", "formatted_address": "4167 Edson Ave, Bronx, NY 10466", "locality": "Bronx", "postcode": "10466", "region": "NY"}, "name": "Best Start Academy", "related_places": {}, "timezone": "America/New_York"}, {"fsq_id": "5d5f5044d0ae1c0008f043c3", "categories": [{"id": 17035, "name": "Drugstore", "icon": {"prefix": "https://ss3.4sqi.net/img/categories_v2/shops/pharmacy_", "suffix": ".png"}}], "chains": [{"id": "ab4b4810-d68a-012e-5619-003048cad9da", "name": "Walgreens"}], "distance": 291, "geocodes": {"main": {"latitude": 40.896421, "longitude": -73.844802}, "roof": {"latitude": 40.896421, "longitude": -73.844802}}, "link": "/v3/places/5d5f5044d0ae1c0008f043c3", "location": {"address": "4232 Baychester Ave", "census_block": "360050428001000", "country": "US", "cross_street": "Pitman", "dma": "New York", "formatted_address": "4232 Baychester Ave (Pitman), Bronx, NY 10466", "locality": "Bronx", "postcode": "10466", "region": "NY"}, "name": "Walgreens", "related_places": {}, "timezone": "America/New_York"}, {"fsq_id": "4dfd06cb183853f2cb52dbea", "categories": [{"id": 17060, "name": "Candy Store", "icon": {"prefix": "https://ss3.4sqi.net/img/categories_v2/shops/candystore_", "suffix": ".png"}}], "chains": [], "distance": 260, "geocodes": {"main": {"latitude": 40.894607, "longitude": -73.850212}, "roof": {"latitude": 40.894607, "longitude": -73.850212}}, "link": "/v3/places/4dfd06cb183853f2cb52dbea", "location": {"address": "Gunther Ave", "census_block": "360050430002002", "country": "US", "cross_street": "", "dma": "New York", "formatted_address": "Gunther Ave, Bronx, NY 10466", "locality": "Bronx", "postcode": "10466", "region": "NY"}, "name": "Yafai Corner Store", "related_places": {}, "timezone": "America/New_York"}, {"fsq_id": "508af256e4b0578944c87392", "categories": [{"id": 13068, "name": "American Restaurant", "icon": {"prefix": "https://ss3.4sqi.net/img/categories_v2/food/default_", "suffix": ".png"}}, {"id": 13097, "name": "Caribbean Restaurant", "icon": {"prefix": "https://ss3.4sqi.net/img/categories_v2/food/caribbean_", "suffix": ".png"}}, {"id": 13145, "name": "Fast Food Restaurant", "icon": {"prefix": "https://ss3.4sqi.net/img/categories_v2/food/fastfood_", "suffix": ".png"}}], "chains": [], "distance": 454, "geocodes": {"main": {"latitude": 40.898173, "longitude": -73.850254}, "roof": {"latitude": 40.898173, "longitude": -73.850254}}, "link": "/v3/places/508af256e4b0578944c87392", "location": {"address": "1802 Nereid Ave", "census_block": "360050436002000", "country": "US", "cross_street": "Wickham", "dma": "New York", "formatted_address": "1802 Nereid Ave (Wickham), Bronx, NY 10466", "locality": "Bronx", "postcode": "10466", "region": "NY"}, "name": "Cooler Runnings Jamaican Restaurant", "related_places": {}, "timezone": "America/New_York"}, {"fsq_id": "4e62b273d22d509a39c015ab", "categories": [{"id": 11061, "name": "Health and Beauty Service", "icon": {"prefix": "https://ss3.4sqi.net/img/categories_v2/shops/salon_barber_", "suffix": ".png"}}], "chains": [], "distance": 322, "geocodes": {"main": {"latitude": 40.893643, "longitude": -73.843562}, "roof": {"latitude": 40.893643, "longitude": -73.843562}}, "link": "/v3/places/4e62b273d22d509a39c015ab", "location": {"address": "4120 Baychester Ave", "census_block": "360050428001005", "country": "US", "cross_street": "", "dma": "New York", "formatted_address": "4120 Baychester Ave, Bronx, NY 10466", "locality": "Bronx", "postcode": "10466", "region": "NY"}, "name": "Salon", "related_places": {}, "timezone": "America/New_York"}, {"fsq_id": "4f32458019836c91c7c734ff", "categories": [{"id": 13039, "name": "Deli", "icon": {"prefix": "https://ss3.4sqi.net/img/categories_v2/food/deli_", "suffix": ".png"}}], "chains": [], "distance": 326, "geocodes": {"main": {"latitude": 40.896766, "longitude": -73.844332}}, "link": "/v3/places/4f32458019836c91c7c734ff", "location": {"address": "2020 Pitman Ave", "census_block": "360050428001000", "country": "US", "dma": "New York", "formatted_address": "2020 Pitman Ave, Bronx, NY 10466", "locality": "Bronx", "postcode": "10466", "region": "NY"}, "name": "Central Deli", "related_places": {}, "timezone": "America/New_York"}, {"fsq_id": "4fecaff0e4b0186db0217bb8", "categories": [{"id": 17029, "name": "Convenience Store", "icon": {"prefix": "https://ss3.4sqi.net/img/categories_v2/shops/conveniencestore_", "suffix": ".png"}}], "chains": [], "distance": 326, "geocodes": {"main": {"latitude": 40.896648, "longitude": -73.844372}, "roof": {"latitude": 40.896648, "longitude": -73.844372}}, "link": "/v3/places/4fecaff0e4b0186db0217bb8", "location": {"address": "2020 Pitman Ave", "census_block": "360050428001000", "country": "US", "cross_street": "De Remier Ave", "dma": "New York", "formatted_address": "2020 Pitman Ave (De Remier Ave), Bronx, NY 10466", "locality": "Bronx", "postcode": "10466", "region": "NY"}, "name": "Pittman Ave bodega", "related_places": {}, "timezone": "America/New_York"}, {"fsq_id": "4c783cef3badb1f7e4244b54", "categories": [{"id": 13046, "name": "Ice Cream Parlor", "icon": {"prefix": "https://ss3.4sqi.net/img/categories_v2/food/icecream_", "suffix": ".png"}}], "chains": [{"id": "9b38ce03-549a-47a9-a82d-284d73885a0c", "name": "Carvel"}], "distance": 482, "geocodes": {"main": {"latitude": 40.890433, "longitude": -73.848571}, "roof": {"latitude": 40.890433, "longitude": -73.848571}}, "link": "/v3/places/4c783cef3badb1f7e4244b54", "location": {"address": "1006 E 233rd St", "census_block": "360050424001000", "country": "US", "cross_street": "", "dma": "New York", "formatted_address": "1006 E 233rd St, Bronx, NY 10466", "locality": "Bronx", "postcode": "10466", "region": "NY"}, "name": "Carvel", "related_places": {}, "timezone": "America/New_York"}, {"fsq_id": "4d33665fb6093704b80001e0", "categories": [{"id": 13039, "name": "Deli", "icon": {"prefix": "https://ss3.4sqi.net/img/categories_v2/food/deli_", "suffix": ".png"}}, {"id": 13145, "name": "Fast Food Restaurant", "icon": {"prefix": "https://ss3.4sqi.net/img/categories_v2/food/fastfood_", "suffix": ".png"}}], "chains": [{"id": "ab4bee40-d68a-012e-5619-003048cad9da", "name": "Subway"}], "distance": 498, "geocodes": {"main": {"latitude": 40.890473, "longitude": -73.849142}, "roof": {"latitude": 40.890473, "longitude": -73.849142}}, "link": "/v3/places/4d33665fb6093704b80001e0", "location": {"address": "980 E 233rd St", "census_block": "360050424002000", "country": "US", "cross_street": "", "dma": "New York", "formatted_address": "980 E 233rd St, Bronx, NY 10466", "locality": "Bronx", "postcode": "10466", "region": "NY"}, "name": "Subway", "related_places": {}, "timezone": "America/New_York"}, {"fsq_id": "4c10f6aece57c92804a682d2", "categories": [{"id": 13002, "name": "Bakery", "icon": {"prefix": "https://ss3.4sqi.net/img/categories_v2/food/bakery_", "suffix": ".png"}}, {"id": 13097, "name": "Caribbean Restaurant", "icon": {"prefix": "https://ss3.4sqi.net/img/categories_v2/food/caribbean_", "suffix": ".png"}}], "chains": [], "distance": 685, "geocodes": {"main": {"latitude": 40.889057, "longitude": -73.843265}, "roof": {"latitude": 40.889057, "longitude": -73.843265}}, "link": "/v3/places/4c10f6aece57c92804a682d2", "location": {"address": "1203 E 233rd St", "census_block": "360050426001003", "country": "US", "cross_street": "Baychester Aveue", "dma": "New York", "formatted_address": "1203 E 233rd St (Baychester Aveue), Bronx, NY 10466", "locality": "Bronx", "postcode": "10466", "region": "NY"}, "name": "Jackie's West Indian Bakery", "related_places": {}, "timezone": "America/New_York"}, {"fsq_id": "4c25c212f1272d7f836385c5", "categories": [{"id": 13001, "name": "Bagel Shop", "icon": {"prefix": "https://ss3.4sqi.net/img/categories_v2/food/bagels_", "suffix": ".png"}}], "chains": [{"id": "2cb519f8-883c-4263-860a-cd83325fbb97", "name": "Dunkin'"}], "distance": 497, "geocodes": {"main": {"latitude": 40.89042, "longitude": -73.849096}, "roof": {"latitude": 40.89042, "longitude": -73.849096}}, "link": "/v3/places/4c25c212f1272d7f836385c5", "location": {"address": "980 E 233rd St", "address_extended": "E 233rd And Paulding Ave", "census_block": "360050424002000", "country": "US", "cross_street": "Paulding Ave", "dma": "New York", "formatted_address": "980 E 233rd St (Paulding Ave), Bronx, NY 10466", "locality": "Bronx", "postcode": "10466", "region": "NY"}, "name": "Dunkin'", "related_places": {}, "timezone": "America/New_York"}, {"fsq_id": "4d375ce799fe8eec99fd2355", "categories": [{"id": 13097, "name": "Caribbean Restaurant", "icon": {"prefix": "https://ss3.4sqi.net/img/categories_v2/food/caribbean_", "suffix": ".png"}}], "chains": [], "distance": 797, "geocodes": {"main": {"latitude": 40.898196, "longitude": -73.838821}, "roof": {"latitude": 40.898196, "longitude": -73.838821}}, "link": "/v3/places/4d375ce799fe8eec99fd2355", "location": {"address": "151 W Sandford Blvd", "census_block": "361190028002004", "country": "US", "cross_street": "South 11th Avenue", "dma": "New York", "formatted_address": "151 W Sandford Blvd (South 11th Avenue), Mount Vernon, NY 10550", "locality": "Mount Vernon", "postcode": "10550", "region": "NY"}, "name": "Ripe Kitchen and Bar", "related_places": {}, "timezone": "America/New_York"}, {"fsq_id": "4eaea09d9a52ba7847f0bdef", "categories": [{"id": 16030, "name": "Other Great Outdoors", "icon": {"prefix": "https://ss3.4sqi.net/img/categories_v2/parks_outdoors/outdoors_", "suffix": ".png"}}], "chains": [], "distance": 417, "geocodes": {"main": {"latitude": 40.891511, "longitude": -73.844493}, "roof": {"latitude": 40.891511, "longitude": -73.844493}}, "link": "/v3/places/4eaea09d9a52ba7847f0bdef", "location": {"address": "4065 Edson Ave", "census_block": "360050426001002", "country": "US", "cross_street": "Strang Ave", "dma": "New York", "formatted_address": "4065 Edson Ave (Strang Ave), Bronx, NY 10466", "locality": "Bronx", "postcode": "10466", "region": "NY"}, "name": "The Block", "related_places": {}, "timezone": "America/New_York"}, {"fsq_id": "59e94eef0e5da854560f422f", "categories": [{"id": 11064, "name": "Hair Salon", "icon": {"prefix": "https://ss3.4sqi.net/img/categories_v2/shops/salon_barber_", "suffix": ".png"}}], "chains": [], "distance": 443, "geocodes": {"main": {"latitude": 40.891059, "longitude": -73.84947}, "roof": {"latitude": 40.891059, "longitude": -73.84947}}, "link": "/v3/places/59e94eef0e5da854560f422f", "location": {"address": "967 E 233rd St", "census_block": "360050426002004", "country": "US", "cross_street": "Paulding", "dma": "New York", "formatted_address": "967 E 233rd St (Paulding), Bronx, NY 10466", "locality": "Bronx", "postcode": "10466", "region": "NY"}, "name": "Cloud Nine Beauty Salon", "related_places": {}, "timezone": "America/New_York"}, {"fsq_id": "5681717c498e9b9cf4d8c187", "categories": [{"id": 11000, "name": "Business and Professional Services", "icon": {"prefix": "https://ss3.4sqi.net/img/categories_v2/building/default_", "suffix": ".png"}}], "chains": [], "distance": 443, "geocodes": {"main": {"latitude": 40.89121, "longitude": -73.84987}, "roof": {"latitude": 40.89121, "longitude": -73.84987}}, "link": "/v3/places/5681717c498e9b9cf4d8c187", "location": {"address": "951 E 233rd St", "census_block": "360050426002004", "country": "US", "cross_street": "Edenwald Avenue", "dma": "New York", "formatted_address": "951 E 233rd St (Edenwald Avenue), Bronx, NY 10466", "locality": "Bronx", "postcode": "10466", "region": "NY"}, "name": "Koss Quick Wash", "related_places": {}, "timezone": "America/New_York"}, {"fsq_id": "5c9951fa3e6741002c2b56b8", "categories": [{"id": 11061, "name": "Health and Beauty Service", "icon": {"prefix": "https://ss3.4sqi.net/img/categories_v2/shops/salon_barber_", "suffix": ".png"}}], "chains": [], "distance": 446, "geocodes": {"main": {"latitude": 40.890858, "longitude": -73.848849}, "roof": {"latitude": 40.890858, "longitude": -73.848849}}, "link": "/v3/places/5c9951fa3e6741002c2b56b8", "location": {"address": "975 E 233rd St", "census_block": "360050426002004", "country": "US", "cross_street": "", "dma": "New York", "formatted_address": "975 E 233rd St, Bronx, NY 10466", "locality": "Bronx", "postcode": "10466", "region": "NY"}, "name": "Flawless Kitty", "related_places": {}, "timezone": "America/New_York"}, {"fsq_id": "5434ade0498e442d0bc24fc0", "categories": [{"id": 13068, "name": "American Restaurant", "icon": {"prefix": "https://ss3.4sqi.net/img/categories_v2/food/default_", "suffix": ".png"}}, {"id": 13097, "name": "Caribbean Restaurant", "icon": {"prefix": "https://ss3.4sqi.net/img/categories_v2/food/caribbean_", "suffix": ".png"}}, {"id": 13344, "name": "Southern / Soul Food Restaurant", "icon": {"prefix": "https://ss3.4sqi.net/img/categories_v2/food/southern_", "suffix": ".png"}}], "chains": [], "distance": 448, "geocodes": {"main": {"latitude": 40.890909, "longitude": -73.848983}, "roof": {"latitude": 40.890909, "longitude": -73.848983}}, "link": "/v3/places/5434ade0498e442d0bc24fc0", "location": {"address": "987 E 233rd St", "census_block": "360050426002004", "country": "US", "cross_street": "", "dma": "New York", "formatted_address": "987 E 233rd St, Bronx, NY 10466", "locality": "Bronx", "postcode": "10466", "region": "NY"}, "name": "Lammy's Restaurant", "related_places": {}, "timezone": "America/New_York"}, {"fsq_id": "4c9e50e38afca09379b2ff15", "categories": [{"id": 13199, "name": "Indian Restaurant", "icon": {"prefix": "https://ss3.4sqi.net/img/categories_v2/food/indian_", "suffix": ".png"}}], "chains": [], "distance": 821, "geocodes": {"main": {"latitude": 40.89395, "longitude": -73.856803}, "roof": {"latitude": 40.89395, "longitude": -73.856803}}, "link": "/v3/places/4c9e50e38afca09379b2ff15", "location": {"address": "4220 White Plains Rd", "census_block": "360050434004004", "country": "US", "cross_street": "Between 233rd and 234th street", "dma": "New York", "formatted_address": "4220 White Plains Rd (Between 233rd and 234th street), Bronx, NY 10466", "locality": "Bronx", "postcode": "10466", "region": "NY"}, "name": "Ali's Roti Shop", "related_places": {}, "timezone": "America/New_York"}, {"fsq_id": "4ec7ee15b8f758db74c09f94", "categories": [{"id": 11061, "name": "Health and Beauty Service", "icon": {"prefix": "https://ss3.4sqi.net/img/categories_v2/shops/salon_barber_", "suffix": ".png"}}], "chains": [], "distance": 472, "geocodes": {"main": {"latitude": 40.890732, "longitude": -73.849546}, "roof": {"latitude": 40.890732, "longitude": -73.849546}}, "link": "/v3/places/4ec7ee15b8f758db74c09f94", "location": {"address": "950 E 233rd St", "census_block": "360050424002000", "country": "US", "cross_street": "", "dma": "New York", "formatted_address": "950 E 233rd St, Bronx, NY 10466", "locality": "Bronx", "postcode": "10466", "region": "NY"}, "name": "Margarita Dominican Unisex Salon", "related_places": {}, "timezone": "America/New_York"}, {"fsq_id": "4beda0fc6e8c20a14aa97061", "categories": [{"id": 17035, "name": "Drugstore", "icon": {"prefix": "https://ss3.4sqi.net/img/categories_v2/shops/pharmacy_", "suffix": ".png"}}], "chains": [{"id": "ab4a5280-d68a-012e-5619-003048cad9da", "name": "Rite Aid"}], "distance": 719, "geocodes": {"main": {"latitude": 40.889008, "longitude": -73.843044}, "roof": {"latitude": 40.889008, "longitude": -73.843044}}, "link": "/v3/places/4beda0fc6e8c20a14aa97061", "location": {"address": "1179 E 233rd St", "census_block": "360050426001003", "country": "US", "dma": "New York", "formatted_address": "1179 E 233rd St, Bronx, NY 10466", "locality": "Bronx", "postcode": "10466", "region": "NY"}, "name": "Rite Aid", "related_places": {}, "timezone": "America/New_York"}, {"fsq_id": "57fd59a2498e721d3b3e14bf", "categories": [{"id": 17134, "name": "Tobacco Store", "icon": {"prefix": "https://ss3.4sqi.net/img/categories_v2/shops/tobacco_", "suffix": ".png"}}], "chains": [], "distance": 496, "geocodes": {"main": {"latitude": 40.890822, "longitude": -73.85025}, "roof": {"latitude": 40.890822, "longitude": -73.85025}}, "link": "/v3/places/57fd59a2498e721d3b3e14bf", "location": {"address": "942 E 233rd St", "census_block": "360050424002000", "country": "US", "cross_street": "paulding ave", "dma": "New York", "formatted_address": "942 E 233rd St (paulding ave), Bronx, NY 10466", "locality": "Bronx", "postcode": "10466", "region": "NY"}, "name": "Mos Cigar", "related_places": {}, "timezone": "America/New_York"}, {"fsq_id": "4d8ee4926174a093cc36d3e3", "categories": [{"id": 11068, "name": "Laundromat", "icon": {"prefix": "https://ss3.4sqi.net/img/categories_v2/shops/laundry_", "suffix": ".png"}}], "chains": [], "distance": 499, "geocodes": {"main": {"latitude": 40.890576, "longitude": -73.849321}, "roof": {"latitude": 40.890576, "longitude": -73.849321}}, "link": "/v3/places/4d8ee4926174a093cc36d3e3", "location": {"address": "980 E 233rd St", "census_block": "360050424002000", "country": "US", "cross_street": "", "dma": "New York", "formatted_address": "980 E 233rd St, Bronx, NY 10466", "locality": "Bronx", "postcode": "10466", "region": "NY"}, "name": "Good Neighbor Laundromat", "related_places": {}, "timezone": "America/New_York"}, {"fsq_id": "4f32693519836c91c7d5297d", "categories": [{"id": 17076, "name": "Liquor Store", "icon": {"prefix": "https://ss3.4sqi.net/img/categories_v2/shops/food_liquor_", "suffix": ".png"}}], "chains": [], "distance": 499, "geocodes": {"main": {"latitude": 40.890981, "longitude": -73.850387}, "roof": {"latitude": 40.890981, "longitude": -73.850387}}, "link": "/v3/places/4f32693519836c91c7d5297d", "location": {"address": "930 E 233rd St", "census_block": "360050424002000", "country": "US", "dma": "New York", "formatted_address": "930 E 233rd St, Bronx, NY 10466", "locality": "Bronx", "postcode": "10466", "region": "NY"}, "name": "Edenwald Liquors", "related_places": {}, "timezone": "America/New_York"}, {"fsq_id": "5436c235498e5eeeb3369ab1", "categories": [{"id": 11064, "name": "Hair Salon", "icon": {"prefix": "https://ss3.4sqi.net/img/categories_v2/shops/salon_barber_", "suffix": ".png"}}], "chains": [], "distance": 507, "geocodes": {"main": {"latitude": 40.898428, "longitude": -73.850833}, "roof": {"latitude": 40.898428, "longitude": -73.850833}}, "link": "/v3/places/5436c235498e5eeeb3369ab1", "location": {"address": "1785 Nereid Ave", "census_block": "360050436001003", "country": "US", "cross_street": "Wickham Ave", "dma": "New York", "formatted_address": "1785 Nereid Ave (Wickham Ave), Bronx, NY 10466", "locality": "Bronx", "postcode": "10466", "region": "NY"}, "name": "Milan The Salon", "related_places": {}, "timezone": "America/New_York"}, {"fsq_id": "4ccdcb34ee23a143161f28a8", "categories": [{"id": 11069, "name": "Laundry Service", "icon": {"prefix": "https://ss3.4sqi.net/img/categories_v2/shops/laundry_", "suffix": ".png"}}], "chains": [], "distance": 507, "geocodes": {"main": {"latitude": 40.898428, "longitude": -73.850833}, "roof": {"latitude": 40.898428, "longitude": -73.850833}}, "link": "/v3/places/4ccdcb34ee23a143161f28a8", "location": {"address": "1781 Nereid Ave", "census_block": "360050436001003", "country": "US", "cross_street": "", "dma": "New York", "formatted_address": "1781 Nereid Ave, Bronx, NY 10466", "locality": "Bronx", "postcode": "10466", "region": "NY"}, "name": "S & S Sparkle Laundrymat", "related_places": {}, "timezone": "America/New_York"}, {"fsq_id": "4e35ea131f6e9e21ad540c01", "categories": [{"id": 11069, "name": "Laundry Service", "icon": {"prefix": "https://ss3.4sqi.net/img/categories_v2/shops/laundry_", "suffix": ".png"}}], "chains": [], "distance": 514, "geocodes": {"main": {"latitude": 40.891181, "longitude": -73.851007}, "roof": {"latitude": 40.891181, "longitude": -73.851007}}, "link": "/v3/places/4e35ea131f6e9e21ad540c01", "location": {"address": "912 E 233rd St", "census_block": "360050424002000", "country": "US", "cross_street": "Edenwald Ave", "dma": "New York", "formatted_address": "912 E 233rd St (Edenwald Ave), Bronx, NY 10466", "locality": "Bronx", "postcode": "10466", "region": "NY"}, "name": "Choi Laundromat", "related_places": {}, "timezone": "America/New_York"}, {"fsq_id": "5a830b1ba9e4020bd3f50bbe", "categories": [], "chains": [], "distance": 515, "geocodes": {"main": {"latitude": 40.890154, "longitude": -73.846171}}, "link": "/v3/places/5a830b1ba9e4020bd3f50bbe", "location": {"address": "4004 Bruner Ave", "census_block": "360050426002001", "country": "US", "cross_street": "", "dma": "New York", "formatted_address": "4004 Bruner Ave, Bronx, NY 10466", "locality": "Bronx", "postcode": "10466", "region": "NY"}, "name": "Naturally Everything for Life", "related_places": {}, "timezone": "America/New_York"}, {"fsq_id": "513baa83e4b0e8ef8133ceae", "categories": [{"id": 11066, "name": "Dry Cleaner", "icon": {"prefix": "https://ss3.4sqi.net/img/categories_v2/shops/drycleaner_", "suffix": ".png"}}], "chains": [], "distance": 517, "geocodes": {"main": {"latitude": 40.891625, "longitude": -73.852644}, "roof": {"latitude": 40.891625, "longitude": -73.852644}}, "link": "/v3/places/513baa83e4b0e8ef8133ceae", "location": {"address": "840 E 233rd St", "census_block": "360050422001000", "country": "US", "cross_street": "", "dma": "New York", "formatted_address": "840 E 233rd St, Bronx, NY 10466", "locality": "Bronx", "postcode": "10466", "region": "NY"}, "name": "Great Dry Cleaners", "related_places": {}, "timezone": "America/New_York"}, {"fsq_id": "4e7a40c429c2051e903d03ca", "categories": [{"id": 11075, "name": "Tattoo Parlor", "icon": {"prefix": "https://ss3.4sqi.net/img/categories_v2/shops/tattoos_", "suffix": ".png"}}], "chains": [], "distance": 530, "geocodes": {"main": {"latitude": 40.891126, "longitude": -73.851049}, "roof": {"latitude": 40.891126, "longitude": -73.851049}}, "link": "/v3/places/4e7a40c429c2051e903d03ca", "location": {"address": "916 E 233rd St", "census_block": "360050424002000", "country": "US", "cross_street": "", "dma": "New York", "formatted_address": "916 E 233rd St, Bronx, NY 10466", "locality": "Bronx", "postcode": "10466", "region": "NY"}, "name": "One Love Ink Tattoo", "related_places": {}, "timezone": "America/New_York"}, {"fsq_id": "55bff8a5498e67af2457ca92", "categories": [{"id": 13026, "name": "BBQ Joint", "icon": {"prefix": "https://ss3.4sqi.net/img/categories_v2/food/bbqalt_", "suffix": ".png"}}, {"id": 13338, "name": "Seafood Restaurant", "icon": {"prefix": "https://ss3.4sqi.net/img/categories_v2/food/seafood_", "suffix": ".png"}}, {"id": 13344, "name": "Southern / Soul Food Restaurant", "icon": {"prefix": "https://ss3.4sqi.net/img/categories_v2/food/southern_", "suffix": ".png"}}], "chains": [], "distance": 684, "geocodes": {"main": {"latitude": 40.892631, "longitude": -73.855572}, "roof": {"latitude": 40.892631, "longitude": -73.855572}}, "link": "/v3/places/55bff8a5498e67af2457ca92", "location": {"address": "746 E 233rd St", "census_block": "360050422001003", "country": "US", "cross_street": "", "dma": "New York", "formatted_address": "746 E 233rd St, Bronx, NY 10466", "locality": "Bronx", "postcode": "10466", "region": "NY"}, "name": "Paula's Soul Cafe", "related_places": {}, "timezone": "America/New_York"}, {"fsq_id": "4dc718002271f2705156356b", "categories": [{"id": 17069, "name": "Grocery Store / Supermarket", "icon": {"prefix": "https://ss3.4sqi.net/img/categories_v2/shops/food_grocery_", "suffix": ".png"}}], "chains": [], "distance": 678, "geocodes": {"main": {"latitude": 40.889057, "longitude": -73.843265}, "roof": {"latitude": 40.889057, "longitude": -73.843265}}, "link": "/v3/places/4dc718002271f2705156356b", "location": {"address": "1199 E 233rd St", "census_block": "360050426001003", "country": "US", "cross_street": "", "dma": "New York", "formatted_address": "1199 E 233rd St, Bronx, NY 10466", "locality": "Bronx", "postcode": "10466", "region": "NY"}, "name": "Fine Fare Supermarkets", "related_places": {}, "timezone": "America/New_York"}, {"fsq_id": "4bdc00132a3a0f47cd42b1b6", "categories": [{"id": 13001, "name": "Bagel Shop", "icon": {"prefix": "https://ss3.4sqi.net/img/categories_v2/food/bagels_", "suffix": ".png"}}], "chains": [{"id": "2cb519f8-883c-4263-860a-cd83325fbb97", "name": "Dunkin'"}], "distance": 750, "geocodes": {"main": {"latitude": 40.898381, "longitude": -73.85473}, "roof": {"latitude": 40.898381, "longitude": -73.85473}}, "link": "/v3/places/4bdc00132a3a0f47cd42b1b6", "location": {"address": "4399A White Plains Rd", "census_block": "360050418001000", "country": "US", "cross_street": "Nereid Ave", "dma": "New York", "formatted_address": "4399A White Plains Rd (Nereid Ave), Bronx, NY 10466", "locality": "Bronx", "postcode": "10466", "region": "NY"}, "name": "Dunkin'", "related_places": {}, "timezone": "America/New_York"}, {"fsq_id": "4ec011fa6da15b4ddf246a5e", "categories": [{"id": 16017, "name": "Garden", "icon": {"prefix": "https://ss3.4sqi.net/img/categories_v2/parks_outdoors/garden_", "suffix": ".png"}}], "chains": [], "distance": 585, "geocodes": {"main": {"latitude": 40.897767, "longitude": -73.842923}, "roof": {"latitude": 40.897767, "longitude": -73.842923}}, "link": "/v3/places/4ec011fa6da15b4ddf246a5e", "location": {"address": "4311 Murdock Ave", "census_block": "360050444003000", "country": "US", "cross_street": "", "dma": "New York", "formatted_address": "4311 Murdock Ave, Bronx, NY 10466", "locality": "Bronx", "postcode": "10466", "region": "NY"}, "name": "Bissel Gardens", "related_places": {}, "timezone": "America/New_York"}, {"fsq_id": "4c1bed4eb306c928140763b7", "categories": [{"id": 13031, "name": "Burger Joint", "icon": {"prefix": "https://ss3.4sqi.net/img/categories_v2/food/burger_", "suffix": ".png"}}, {"id": 13068, "name": "American Restaurant", "icon": {"prefix": "https://ss3.4sqi.net/img/categories_v2/food/default_", "suffix": ".png"}}, {"id": 13145, "name": "Fast Food Restaurant", "icon": {"prefix": "https://ss3.4sqi.net/img/categories_v2/food/fastfood_", "suffix": ".png"}}], "chains": [], "distance": 983, "geocodes": {"main": {"latitude": 40.891853, "longitude": -73.858478}, "roof": {"latitude": 40.891853, "longitude": -73.858478}}, "link": "/v3/places/4c1bed4eb306c928140763b7", "location": {"address": "4137 White Plains Rd", "census_block": "360050420003000", "country": "US", "cross_street": "231st Street", "dma": "New York", "formatted_address": "4137 White Plains Rd (231st Street), Bronx, NY 10466", "locality": "Bronx", "postcode": "10466", "region": "NY"}, "name": "Jimbo's Hamburger Palace", "related_places": {}, "timezone": "America/New_York"}, {"fsq_id": "4eb046abb8f7116f21081aeb", "categories": [{"id": 13054, "name": "Food Truck", "icon": {"prefix": "https://ss3.4sqi.net/img/categories_v2/food/streetfood_", "suffix": ".png"}}], "chains": [], "distance": 601, "geocodes": {"main": {"latitude": 40.890483, "longitude": -73.842441}, "roof": {"latitude": 40.890483, "longitude": -73.842441}}, "link": "/v3/places/4eb046abb8f7116f21081aeb", "location": {"address": "Baychester Avenue", "census_block": "360050426001000", "country": "US", "cross_street": "233rd Street", "dma": "New York", "formatted_address": "Baychester Avenue (233rd Street), Bronx, NY 10466", "locality": "Bronx", "postcode": "10466", "region": "NY"}, "name": "Baychester Avenue Food Truck", "related_places": {}, "timezone": "America/New_York"}, {"fsq_id": "5c3665e99d7468002c5da87d", "categories": [{"id": 13068, "name": "American Restaurant", "icon": {"prefix": "https://ss3.4sqi.net/img/categories_v2/food/default_", "suffix": ".png"}}, {"id": 13145, "name": "Fast Food Restaurant", "icon": {"prefix": "https://ss3.4sqi.net/img/categories_v2/food/fastfood_", "suffix": ".png"}}], "chains": [{"id": "16e41ab0-992b-0132-fd75-7a163eb2a6fc", "name": "Popeyes Louisiana Kitchen"}], "distance": 752, "geocodes": {"main": {"latitude": 40.898329, "longitude": -73.854684}, "roof": {"latitude": 40.898329, "longitude": -73.854684}}, "link": "/v3/places/5c3665e99d7468002c5da87d", "location": {"address": "4397 White Plains Rd", "census_block": "360050418001000", "country": "US", "cross_street": "", "dma": "New York", "formatted_address": "4397 White Plains Rd, Bronx, NY 10466", "locality": "Bronx", "postcode": "10466", "region": "NY"}, "name": "Popeyes Louisiana Kitchen", "related_places": {}, "timezone": "America/New_York"}, {"fsq_id": "4e1627498877d38dc9037a11", "categories": [{"id": 13099, "name": "Chinese Restaurant", "icon": {"prefix": "https://ss3.4sqi.net/img/categories_v2/food/asian_", "suffix": ".png"}}], "chains": [], "distance": 622, "geocodes": {"main": {"latitude": 40.89793, "longitude": -73.853356}, "roof": {"latitude": 40.89793, "longitude": -73.853356}}, "link": "/v3/places/4e1627498877d38dc9037a11", "location": {"address": "724 Nereid Ave", "census_block": "360050434002001", "country": "US", "cross_street": "at E. 238th St.", "dma": "New York", "formatted_address": "724 Nereid Ave (at E. 238th St.), Bronx, NY 10466", "locality": "Bronx", "postcode": "10466", "region": "NY"}, "name": "New China Elim", "related_places": {}, "timezone": "America/New_York"}, {"fsq_id": "504b6ad4e4b0a294ba2558b4", "categories": [{"id": 11064, "name": "Hair Salon", "icon": {"prefix": "https://ss3.4sqi.net/img/categories_v2/shops/salon_barber_", "suffix": ".png"}}], "chains": [], "distance": 623, "geocodes": {"main": {"latitude": 40.892559, "longitude": -73.854168}, "roof": {"latitude": 40.892559, "longitude": -73.854168}}, "link": "/v3/places/504b6ad4e4b0a294ba2558b4", "location": {"address": "803 E 233rd St", "address_extended": "Frnt A", "census_block": "360050430003003", "country": "US", "cross_street": "", "dma": "New York", "formatted_address": "803 E 233rd St, Bronx, NY 10466", "locality": "Bronx", "postcode": "10466", "region": "NY"}, "name": "Dimples Salon", "related_places": {}, "timezone": "America/New_York"}, {"fsq_id": "4c8e4302ad70a143700f880f", "categories": [{"id": 13068, "name": "American Restaurant", "icon": {"prefix": "https://ss3.4sqi.net/img/categories_v2/food/default_", "suffix": ".png"}}, {"id": 13145, "name": "Fast Food Restaurant", "icon": {"prefix": "https://ss3.4sqi.net/img/categories_v2/food/fastfood_", "suffix": ".png"}}], "chains": [{"id": "16e41ab0-992b-0132-fd75-7a163eb2a6fc", "name": "Popeyes Louisiana Kitchen"}], "distance": 660, "geocodes": {"main": {"latitude": 40.889008, "longitude": -73.843044}, "roof": {"latitude": 40.889008, "longitude": -73.843044}}, "link": "/v3/places/4c8e4302ad70a143700f880f", "location": {"address": "1201 E 233rd St", "census_block": "360050426001003", "country": "US", "cross_street": "Baychester Ave.", "dma": "New York", "formatted_address": "1201 E 233rd St (Baychester Ave.), Bronx, NY 10466", "locality": "Bronx", "postcode": "10466", "region": "NY"}, "name": "Popeyes Louisiana Kitchen", "related_places": {}, "timezone": "America/New_York"}, {"fsq_id": "4f64cde6e4b03be1036cab57", "categories": [{"id": 15024, "name": "Optometrist", "icon": {"prefix": "https://ss3.4sqi.net/img/categories_v2/building/medical_opticalshop_", "suffix": ".png"}}, {"id": 17037, "name": "Eyecare Store", "icon": {"prefix": "https://ss3.4sqi.net/img/categories_v2/building/medical_opticalshop_", "suffix": ".png"}}], "chains": [], "distance": 629, "geocodes": {"main": {"latitude": 40.892667, "longitude": -73.854171}, "roof": {"latitude": 40.892667, "longitude": -73.854171}}, "link": "/v3/places/4f64cde6e4b03be1036cab57", "location": {"address": "801 E 233rd St", "census_block": "360050430003003", "country": "US", "cross_street": "", "dma": "New York", "formatted_address": "801 E 233rd St, Bronx, NY 10466", "locality": "Bronx", "postcode": "10466", "region": "NY"}, "name": "Sajo Optometric Care", "related_places": {}, "timezone": "America/New_York"}, {"fsq_id": "4b6dbb78f964a520968a2ce3", "categories": [{"id": 13064, "name": "Pizzeria", "icon": {"prefix": "https://ss3.4sqi.net/img/categories_v2/food/pizza_", "suffix": ".png"}}, {"id": 13145, "name": "Fast Food Restaurant", "icon": {"prefix": "https://ss3.4sqi.net/img/categories_v2/food/fastfood_", "suffix": ".png"}}], "chains": [{"id": "ab4afc60-d68a-012e-5619-003048cad9da", "name": "Domino's Pizza"}], "distance": 765, "geocodes": {"main": {"latitude": 40.898487, "longitude": -73.854822}, "roof": {"latitude": 40.898487, "longitude": -73.854822}}, "link": "/v3/places/4b6dbb78f964a520968a2ce3", "location": {"address": "686C Nereid Ave", "address_extended": "# C", "census_block": "360050418001009", "country": "US", "dma": "New York", "formatted_address": "686C Nereid Ave, Bronx, NY 10470", "locality": "Bronx", "postcode": "10470", "region": "NY"}, "name": "Domino's Pizza", "related_places": {}, "timezone": "America/New_York"}, {"fsq_id": "555f7eb6498ec3f83f23649e", "categories": [{"id": 11048, "name": "Check Cashing Service", "icon": {"prefix": "https://ss3.4sqi.net/img/categories_v2/shops/financial_", "suffix": ".png"}}], "chains": [], "distance": 659, "geocodes": {"main": {"latitude": 40.889057, "longitude": -73.843265}, "roof": {"latitude": 40.889057, "longitude": -73.843265}}, "link": "/v3/places/555f7eb6498ec3f83f23649e", "location": {"address": "1209 E 233rd St", "census_block": "360050426001003", "country": "US", "cross_street": "", "dma": "New York", "formatted_address": "1209 E 233rd St, Bronx, NY 10466", "locality": "Bronx", "postcode": "10466", "region": "NY"}, "name": "Baychester Payment Center", "related_places": {}, "timezone": "America/New_York"}, {"fsq_id": "4cd3edd25366548131a129ed", "categories": [{"id": 13002, "name": "Bakery", "icon": {"prefix": "https://ss3.4sqi.net/img/categories_v2/food/bakery_", "suffix": ".png"}}, {"id": 13065, "name": "Restaurant", "icon": {"prefix": "https://ss3.4sqi.net/img/categories_v2/food/default_", "suffix": ".png"}}], "chains": [], "distance": 832, "geocodes": {"main": {"latitude": 40.893511, "longitude": -73.85705}, "roof": {"latitude": 40.893511, "longitude": -73.85705}}, "link": "/v3/places/4cd3edd25366548131a129ed", "location": {"address": "4202 White Plains Rd", "census_block": "360050434004004", "country": "US", "cross_street": "233rd Street", "dma": "New York", "formatted_address": "4202 White Plains Rd (233rd Street), Bronx, NY 10466", "locality": "Bronx", "postcode": "10466", "region": "NY"}, "name": "E & L Bakery", "related_places": {}, "timezone": "America/New_York"}, {"fsq_id": "4e17245245ddc623eb0f8fc6", "categories": [{"id": 17069, "name": "Grocery Store / Supermarket", "icon": {"prefix": "https://ss3.4sqi.net/img/categories_v2/shops/food_grocery_", "suffix": ".png"}}], "chains": [{"id": "c138edcf-908b-4740-8574-1134c68184bb", "name": "Foodtown"}], "distance": 734, "geocodes": {"main": {"latitude": 40.896417, "longitude": -73.855447}, "roof": {"latitude": 40.896417, "longitude": -73.855447}}, "link": "/v3/places/4e17245245ddc623eb0f8fc6", "location": {"address": "4332 White Plains Rd", "census_block": "360050434003002", "country": "US", "cross_street": "", "dma": "New York", "formatted_address": "4332 White Plains Rd, Bronx, NY 10466", "locality": "Bronx", "postcode": "10466", "region": "NY"}, "name": "Foodtown", "related_places": {}, "timezone": "America/New_York"}, {"fsq_id": "4ce8e36fb99754810c62ff44", "categories": [{"id": 17069, "name": "Grocery Store / Supermarket", "icon": {"prefix": "https://ss3.4sqi.net/img/categories_v2/shops/food_grocery_", "suffix": ".png"}}], "chains": [], "distance": 668, "geocodes": {"main": {"latitude": 40.892178, "longitude": -73.854285}, "roof": {"latitude": 40.892178, "longitude": -73.854285}}, "link": "/v3/places/4ce8e36fb99754810c62ff44", "location": {"address": "800 E 233rd St", "census_block": "360050422001001", "country": "US", "cross_street": "Barnes Ave", "dma": "New York", "formatted_address": "800 E 233rd St (Barnes Ave), Bronx, NY 10466", "locality": "Bronx", "postcode": "10466", "region": "NY"}, "name": "Barnes Ave Grocery", "related_places": {}, "timezone": "America/New_York"}, {"fsq_id": "5b4a854fcad1b60036956654", "categories": [{"id": 11071, "name": "Nail Salon", "icon": {"prefix": "https://ss3.4sqi.net/img/categories_v2/shops/nailsalon_", "suffix": ".png"}}], "chains": [], "distance": 674, "geocodes": {"main": {"latitude": 40.898406, "longitude": -73.853767}, "roof": {"latitude": 40.898406, "longitude": -73.853767}}, "link": "/v3/places/5b4a854fcad1b60036956654", "location": {"address": "703 Nereid Ave", "census_block": "360050434001003", "country": "US", "cross_street": "", "dma": "New York", "formatted_address": "703 Nereid Ave, New York, NY 10466", "locality": "New York", "postcode": "10466", "region": "NY"}, "name": "The Nail Box", "related_places": {}, "timezone": "America/New_York"}, {"fsq_id": "4edbac4e775bcc53fc0ed5f8", "categories": [{"id": 13099, "name": "Chinese Restaurant", "icon": {"prefix": "https://ss3.4sqi.net/img/categories_v2/food/asian_", "suffix": ".png"}}], "chains": [], "distance": 675, "geocodes": {"main": {"latitude": 40.889603, "longitude": -73.843022}, "roof": {"latitude": 40.889603, "longitude": -73.843022}}, "link": "/v3/places/4edbac4e775bcc53fc0ed5f8", "location": {"address": "1213 E 233rd St", "census_block": "360050426001003", "country": "US", "cross_street": "Baychester Avenue", "dma": "New York", "formatted_address": "1213 E 233rd St (Baychester Avenue), Bronx, NY 10466", "locality": "Bronx", "postcode": "10466", "region": "NY"}, "name": "Hong Kong China King", "related_places": {}, "timezone": "America/New_York"}, {"fsq_id": "4c1aa37fb9f876b098fc7846", "categories": [{"id": 17026, "name": "Mobile Phone Store", "icon": {"prefix": "https://ss3.4sqi.net/img/categories_v2/shops/mobilephoneshop_", "suffix": ".png"}}], "chains": [{"id": "16e91280-992b-0132-fd75-7a163eb2a6fc", "name": "T-Mobile"}], "distance": 860, "geocodes": {"main": {"latitude": 40.89313, "longitude": -73.857167}, "roof": {"latitude": 40.89313, "longitude": -73.857167}}, "link": "/v3/places/4c1aa37fb9f876b098fc7846", "location": {"address": "4198 White Plains Rd", "census_block": "360050422001003", "country": "US", "cross_street": "E 233rd St", "dma": "New York", "formatted_address": "4198 White Plains Rd (E 233rd St), Bronx, NY 10466", "locality": "Bronx", "postcode": "10466", "region": "NY"}, "name": "T-Mobile", "related_places": {}, "timezone": "America/New_York"}, {"fsq_id": "4fb533867beb65c72e11e47f", "categories": [{"id": 11045, "name": "Bank", "icon": {"prefix": "https://ss3.4sqi.net/img/categories_v2/shops/financial_", "suffix": ".png"}}], "chains": [{"id": "ab4a9cb0-d68a-012e-5619-003048cad9da", "name": "Chase Bank"}], "distance": 773, "geocodes": {"main": {"latitude": 40.893208, "longitude": -73.85625}, "roof": {"latitude": 40.893208, "longitude": -73.85625}}, "link": "/v3/places/4fb533867beb65c72e11e47f", "location": {"address": "725 E 233rd St", "census_block": "360050434004004", "country": "US", "dma": "New York", "formatted_address": "725 E 233rd St, Bronx, NY 10466", "locality": "Bronx", "postcode": "10466", "region": "NY"}, "name": "Chase Bank", "related_places": {}, "timezone": "America/New_York"}], "context": {"geo_bounds": {"circle": {"center": {"latitude": 40.89470517661, "longitude": -73.84720052054902}, "radius": 1000}}}}]